$GPRMC,174818.00,A,5047.43147,N,00331.42645,E,1.070,,301021,,,A*77
$GPVTG,,T,,M,1.070,N,1.982,K,A*27
$GPGGA,174818.00,5047.43147,N,00331.42645,E,1,05,1.82,-7.9,M,46.0,M,,*73
$GPGSA,A,3,12,24,23,17,19,,,,,,,,3.81,1.82,3.35*0C
$GPGSV,2,1,06,12,25,214,16,13,36,142,17,17,33,074,15,19,31,107,11*73
$GPGSV,2,2,06,23,31,270,13,24,65,283,12*74
$GPGLL,5047.43147,N,00331.42645,E,174818.00,A,A*69
$GPRMC,174819.00,A,5047.43199,N,00331.42607,E,0.579,,301021,,,A*7E
$GPVTG,,T,,M,0.579,N,1.072,K,A*2C
$GPGGA,174819.00,,214,17,13,36,142,16,17,33,074,15,19,31,107,10*72
$GPGSV,2,2,06,23,31,270,13,24,65,283,12*74
$GPGLL,5047.43199,N,00331.42607,E,174819.00,A,A*6D
$GPRMC,174820.00,A,5047.43131,N,00331.42611,E,1.037,,301021,,,A*7F
$GPVTG,,T,,M,1.037,N,1.921,K,A*2D
$GPGGA,174820.00,14,16,13,36,142,15,17,33,074,15,19,31,107,09*78
$GPGSV,2,2,06,23,31,270,13,24,65,283,12*74
$GPGLL,5047.43131,N,00331.42611,E,174820.00,A,A*62
$GPRMC,174821.00,A,5047.43131,N,00331.42650,E,0.742,,301021,,,A*7F
$GPVTG,,T,,M,0.742,N,1.374,K,A*23
$GPGGA,174821.00,14,16,13,36,142,14,17,33,074,15,19,31,107,09*79
$GPGSV,2,2,06,23,31,270,13,24,65,283,12*74
$GPGLL,5047.43131,N,00331.42650,E,174821.00,A,A*66
$GPRMC,174917.00,A,5047.43766,N,00331.41756,E,1.425,,301021,,,A*78
$GPRMC,174938.00,V,,,,,,,301021,,,N*7C
$GPVTG,,,,,,,,,N*30
$GPGGA,174938.00,,,,,0,00,99.99,,,,,,*66
$GPGSA,A,1,,,,,,,,,,,,,99.99,99.99,99.99*30
$GPGSV,2,1,06,12,26,214,17,13,36,142,07,17,33,073,10,19,31,107,06*74
$GPGSV,2,2,06,23,31,269,09,24,66,284,10*71
$GPGLL,,,,,174938.00,V,N*4A
,107,11*7B
$GPGSV,2,2,06,23,31,269,09,24,66,284,08*78
$GPGLL,,,,,174941.00,V,N*44
$GPRMC,174942.00,V,,,,,,,301021,,,N*71
$GPVTG,,,,,,,,,N*30
$GPGGA,174942.00,,,,,0,00,99.99,,,,,,*6B
$GPGSA,A,1,,,,,,,1,269,10,24,66,284,08*70
$GPGLL,,,,,174943.00,V,N*46
42,,17,33,073,10,19,31,107,06*73
$GPGSV,2,2,06,23,31,269,09,24,66,284,*70
$GPGLL,,,,,174951.00,V,N*45
$GPRMC,174952.00,V,,,,,,,301021,,,N*70
$GPVTG,,,,,,,,,N*30
$GPGGA,174952.00,,,,,0,00,99.99,,,,,,*6A
$GPGSA,A,1,,,,,,,,26,214,18,13,36,142,,17,33,073,09,19,31,107,*72
$GPGSV,2,2,06,23,31,269,28,24,66,284,*73
$GPGLL,,,,,174955.00,V,N*41
$GPRMC,174956.00,V,,,,,,,301021,,,N*74
$GPVTG,,,,,,,,,N*30
$GPGGA,174956.00,,,,,0,00,99.99,,,,,,*6E
$GPGSA,A,1,,,,,,,6,214,17,13,36,142,,17,33,073,08,19,31,106,*7D
$GPGSV,2,2,06,23,31,269,13,24,66,284,*7B
$GPGLL,,,,,174959.00,V,N*4D
$GPGLL,,,,,175005.00,V,N*4C
$GPRMC,175006.00,V,,,,,,,301021,,,N*79
$GPVTG,,,,,,,,,N*30
$GPGGA,175006.00,,,,,0,00,99.99,,,,,,*63
$GPGSA,A,1,,,,,,,,,,,,,99.99,99.99,99.99*30
$GPGSV,2,1,06,12,26,214,16,13,36,142,,17,33,073,,19,31,106,*74
17,33,073,,19,31,106,*76
$GPGSV,2,2,06,23,31,269,10,24,66,284,*78
$GPGLL,,,,,175007.00,V,N*4E
$GPRMC,175008.00,V,,,,,,331.44972,E,2.808,,301021,,,A*79
$GPVTG,,T,,M,2.808,N,5.201,K,A*27
$GPGGA,175013.00,5047.44231,N,00331.44972,E,1,05,2.99,E,1,04,2.07,-10.8,M,46.0,M,,*4D
$GPGSA,A,3,12,24,23,17,,,,,,,,,3.89,2.07,3.30*07
$GPGSV,2,1,06,12,26,215,23,13,36,142,,17,33,073,18,1A,5047.43975,N,00331.42168,E,0.395,,301021,,,A*76
$GPVTG,,T,,M,0.395,N,0.732,K,A*2A
$GPGGA,175018.00,5047.43975,N,0033GA,175021.00,5047.43947,N,00331.41477,E,1,05,1.80,-2.9,M,46.0,M,,*7F
$GPGSA,A,3,12,24,23,17,19,,,,,,,,3.73,1.80,3.26*01
$GPGSV,2,1,06,12,26,215,25,13,35,142,,17,33,073,20,19,31,106,37*70
$GPGSV,2,2,06,23,30,269,39,24,66,284,25*75
$GPGLLK,A*25
$GPGGA,175023.00,5047.43941,N,00331.41364,E,1,05,1.80,-1.2,M,46.0,M,,*76
$GPGSA,A,3,12,24,23,17,19,,,,,,,,3.73,,,,,,,,3.72,1.80,3.26*00
$GPGSV,2,1,06,12,26,215,25,13,35,142,,17,33,073,20,19,31,106,36*71
$GPGSV,2,2,06,23,30,269,38,38,24,66,284,28*79
$GPGLL,5047.43850,N,00331.41264,E,175029.00,A,A*69
$GPRMC,175030.00,A,5047.43838,N,00331.41252,E,0.118,,301021,,,A*7A
$GPVTG,,T,,M,0.118,N,0.218,K,A*20
$GPGGA,175030.00,5030.00,A,A*6A
,N,00331.41203,E,175035.00,A,A*65
$GPRMC,175036.00,A,5047.43767,N,00331.41196,E,0.115,,301021,,,A*7F
$GPVTG,,T,,M,0.115,N,0.212,K,A*27
$GPGGA,175036.00,5047.43767,N,00331.41196,E,1,05,1.80,6.0,M,46.0,M,,*5F
$GPGSA,A,3,12,24,23,17,19,,,,,,,,3.72,1.80,3.25*03
$GPGSV,2,1,01196,E,175036.00,A,A*62
1.41182,E,175040.00,A,A*65
$GPRMC,175041.00,A,5047.43716,N,00331.41179,E,0.148,,301021,,,A*70
$GPVTG,,T,,M,0.148,N,0.275,K,A*2E
$GPGGA,175041.00,5047.43716,N,00331.41179,E,1,05,1.80,8.0,M,46.0,M,,*56
$GPGSA,A,3,12,24,23,17,19,,,,,,,,3.71,1.80,3.25*00
$GPGSV,2,1,000331.41175,E,175042.00,A,A*65
31.41171,E,175046.00,A,A*6B
$GPRMC,175047.00,A,5047.43746,N,00331.41166,E,0.130,,301021,,,A*72
$GPVTG,,T,,M,0.130,N,0.241,K,A*26
$GPGGA,175047.00,5047.43746,N,00331.41166,E,1,05,1.80,10.2,M,46.0,M,,*60
$GPGSA,A,3,12,24,23,17,19,,,,,,,,3.71,1.80,3.25*00
$GPGSV,2,1,N,00331.41168,E,175048.00,A,A*6F
PGLL,5047.43774,N,00331.41168,E,175051.00,A,A*60
$GPRMC,175052.00,A,5047.43791,N,00331.41169,E,0.100,,301021,,,A*70
$GPVTG,,T,,M,0.100,N,0.185,K,A*2E
$GPGGA,175052.00,26,39,28,153,28*4A
$GPGLL,5047.43820,N,00331.41169,E,175054.00,A,A*6A
$GPRMC,175055.00,A,5047.43758,N,00331.41154,E,0.634,195.89,301021,,,A*6E
$GPVTG,195.89,T,,M,0.634,N,1.174,K,A*33
$GPGG7.43758,N,00331.41154,E,175055.00,A,A*65
19,31,106,38*7D
$GPGSV,2,2,07,23,30,268,38,24,66,284,26,39,28,153,28*4A
$GPGLL,5047.43808,N,00331.41144,E,175101.00,A,A*6E
$GPRMC,175102.00,A,5047.43812,N,00331.41143,E,0.316,,301021,,,A*7D
$GPVTG,,T,,M,0.316,N,0.585,K,A*2F
$GPGGA,175102.00,23*79
$GPGLL,5047.43777,N,00331.41123,E,175104.00,A,A*6D
$GPRMC,175105.00,A,5047.43709,N,00331.41113,E,0.146,,301021,,,A*7D
$GPVTG,,T,,M,0.146,N,0.270,K,A*25
$GPGGA,175105.00,1130,E,175106.00,A,A*6C
$GPRMC,175107.00,A,5047.43664,N,00331.41126,E,0.291,,301021,,,A*7A
$GPVTG,,T,,M,0.291,N,0.539,K,A*26
$GPGGA,175107.00,GLL,5047.43462,N,00331.41103,E,175111.00,A,A*6C
$GPRMC,175112.00,A,5047.43452,N,00331.41104,E,0.104,,301021,,,A*76
$GPVTG,,T,,M,0.104,N,0.193,K,A*2D
$GPGGA,175112.00,.41060,E,175114.00,A,A*69
$GPRMC,175115.00,A,5047.43396,N,00331.41019,E,0.375,,301021,,,A*77
$GPVTG,,T,,M,0.375,N,0.695,K,A*28
$GPGGA,175115.00,,268,12,24,66,284,16*7D
$GPGLL,,,,,175117.00,V,N*4E
$GPRMC,175118.00,V,,,,,,,301021,,,N*77
$GPVTG,,,,,,,,,N*30
$GPGGA,175118.00,,,,,0,00,99.99,,,,,,*6D
$GPGSA,A,1,,,,,,,0,V,N*4B
$GPRMC,175122.00,V,,,,,,,301021,,,N*7E
$GPVTG,,,,,,,,,N*30
$GPGGA,175122.00,,,,,0,00,99.99,,,,,,*64
$GPGSA,A,1,,,,,,,,,,,,,99.99,99.99,99.99*30
$GPGSV,2,1,06,12,26,215,12,13,35,143,06,17,33,073,05,19,32,106,06*75
